{
  "data": [
    {
      "location_id": 1,
      "name": "The Oyster Shed",
      "distance": 1,
      "rating": 3.5,
      "bearing": 1,
      "address_obj": {
        "street1": "5 Angel Lane",
        "street2": "",
        "city": "London",
        "state": "",
        "country": "UK",
        "postalcode": "EC4R 3AB",
        "address_string": "",
        "phone": "020 7256 3240",
        "latitude": "",
        "longitude": ""
      }
    },
    {
      "location_id": 2,
      "name": "Caravan City",
      "distance": 2,
      "rating": 4,
      "bearing": 1,
      "address_obj": {
        "street1": "22 Bloomberg Arcade Cornerof Walbrook & Cannon Street",
        "street2": "",
        "city": "London",
        "state": "",
        "country": "UK",
        "postalcode": "EC4N 8AR",
        "address_string": "",
        "phone": "020 3957 5555",
        "latitude": "",
        "longitude": ""
      }
    },
    {
      "location_id": 3,
      "name": "Deli Cat & Sons",
      "distance": 4,
      "rating": 5,
      "bearing": 1,
      "address_obj": {
        "street1": "Broken Wharf House",
        "street2": "2 Broken Wharf, Millenium Bridge",
        "city": "London",
        "state": "",
        "country": "UK",
        "postalcode": "EC4V 3DT",
        "address_string": "",
        "phone": "",
        "latitude": "",
        "longitude": ""
      }
    },
    {
      "location_id": 4,
      "name": "Homeslice City",
      "distance": 5,
      "rating": 5,
      "bearing": 1,
      "address_obj": {
        "street1": "69-71 Queen Street",
        "street2": "",
        "city": "London",
        "state": "",
        "country": "UK",
        "postalcode": "EC4R 1EE",
        "address_string": "",
        "phone": "020 3034 0381",
        "latitude": "",
        "longitude": ""
      }
    },
    {
      "location_id": 5,
      "name": "Mercer Roof Terrace",
      "distance": 6,
      "rating": 5,
      "bearing": 1,
      "address_obj": {
        "street1": "20 Garlick Hill",
        "street2": "",
        "city": "London",
        "state": "",
        "country": "UK",
        "postalcode": "EC4V 2AU",
        "address_string": "",
        "phone": "020 3908 8099",
        "latitude": "",
        "longitude": ""
      }
    },
    {
      "location_id": 6,
      "name": "Hawksmoor Borough",
      "distance": 6,
      "rating": 4.5,
      "bearing": 1,
      "address_obj": {
        "street1": "16 Winchester Walk",
        "street2": "",
        "city": "London",
        "state": "",
        "country": "UK",
        "postalcode": "SE1 9AQ",
        "address_string": "",
        "phone": "020 7234 9940",
        "latitude": "",
        "longitude": ""
      }
    }
  ]
}